<?xml version="1.0" encoding="UTF-8"?>
<kml xmlns="http://www.opengis.net/kml/2.2">
  <Document>
    <name>Cámaras de Tráfico - Vigo</name>
    <description>Cámaras de tráfico del Ayuntamiento de Vigo</description>
    <Placemark>
      <name>Castelao - Grove</name>
      <description>
        <![CDATA[
          <b>Ubicación:</b> Castelao - Grove<br/>
          <b>Descripción:</b> Cámara de tráfico en Castelao - Grove, Vigo<br/>
          <img src="http://camaras.vigo.org/webcam/cam.php?id=05" width="320" height="240"/>
        ]]>
      </description>
      <Point>
        <coordinates>-8.74407,42.21836,0</coordinates>
      </Point>
    </Placemark>
    <Placemark>
      <name>Av. Florida - Caramuxo</name>
      <description>
        <![CDATA[
          <b>Ubicación:</b> Av. Florida - Caramuxo<br/>
          <b>Descripción:</b> Cámara de tráfico en Av. Florida - Caramuxo, Vigo<br/>
          <img src="http://camaras.vigo.org/webcam/cam.php?id=09" width="320" height="240"/>
        ]]>
      </description>
      <Point>
        <coordinates>-8.75131,42.20723,0</coordinates>
      </Point>
    </Placemark>
    <Placemark>
      <name>Policarpo Sanz - Reconquista</name>
      <description>
        <![CDATA[
          <b>Ubicación:</b> Policarpo Sanz - Reconquista<br/>
          <b>Descripción:</b> Cámara de tráfico en Policarpo Sanz - Reconquista, Vigo<br/>
          <img src="http://camaras.vigo.org/webcam/cam.php?id=24" width="320" height="240"/>
        ]]>
      </description>
      <Point>
        <coordinates>-8.72315,42.23753,0</coordinates>
      </Point>
    </Placemark>
    <Placemark>
      <name>Av. Europa - Samil</name>
      <description>
        <![CDATA[
          <b>Ubicación:</b> Av. Europa - Samil<br/>
          <b>Descripción:</b> Cámara de tráfico en Av. Europa - Samil, Vigo<br/>
          <img src="http://camaras.vigo.org/webcam/cam.php?id=27" width="320" height="240"/>
        ]]>
      </description>
      <Point>
        <coordinates>-8.77428,42.21129,0</coordinates>
      </Point>
    </Placemark>
    <Placemark>
      <name>Paseo de Alfonso XII</name>
      <description>
        <![CDATA[
          <b>Ubicación:</b> Paseo de Alfonso XII<br/>
          <b>Descripción:</b> Cámara de tráfico en Paseo de Alfonso XII, Vigo<br/>
          <img src="http://camaras.vigo.org/webcam/cam.php?id=10" width="320" height="240"/>
        ]]>
      </description>
      <Point>
        <coordinates>-8.72855,42.23602,0</coordinates>
      </Point>
    </Placemark>
    <Placemark>
      <name>Florida - Manuel de Castro</name>
      <description>
        <![CDATA[
          <b>Ubicación:</b> Florida - Manuel de Castro<br/>
          <b>Descripción:</b> Cámara de tráfico en Florida - Manuel de Castro, Vigo<br/>
          <img src="http://camaras.vigo.org/webcam/cam.php?id=29" width="320" height="240"/>
        ]]>
      </description>
      <Point>
        <coordinates>-8.74168,42.21456,0</coordinates>
      </Point>
    </Placemark>
    <Placemark>
      <name>Alfonso XIII - Cervantes</name>
      <description>
        <![CDATA[
          <b>Ubicación:</b> Alfonso XIII - Cervantes<br/>
          <b>Descripción:</b> Cámara de tráfico en Alfonso XIII - Cervantes, Vigo<br/>
          <img src="http://camaras.vigo.org/webcam/cam.php?id=30" width="320" height="240"/>
        ]]>
      </description>
      <Point>
        <coordinates>-8.71639,42.23625,0</coordinates>
      </Point>
    </Placemark>
    <Placemark>
      <name>Areal - Miragaia</name>
      <description>
        <![CDATA[
          <b>Ubicación:</b> Areal - Miragaia<br/>
          <b>Descripción:</b> Cámara de tráfico en Areal - Miragaia, Vigo<br/>
          <img src="http://camaras.vigo.org/webcam/cam.php?id=34" width="320" height="240"/>
        ]]>
      </description>
      <Point>
        <coordinates>-8.71171,42.2388,0</coordinates>
      </Point>
    </Placemark>
    <Placemark>
      <name>Tomás Paredes - Av. Atlántida</name>
      <description>
        <![CDATA[
          <b>Ubicación:</b> Tomás Paredes - Av. Atlántida<br/>
          <b>Descripción:</b> Cámara de tráfico en Tomás Paredes - Av. Atlántida, Vigo<br/>
          <img src="http://camaras.vigo.org/webcam/cam.php?id=26" width="320" height="240"/>
        ]]>
      </description>
      <Point>
        <coordinates>-8.75276,42.2223,0</coordinates>
      </Point>
    </Placemark>
    <Placemark>
      <name>López Mora - Pintor Lugrís</name>
      <description>
        <![CDATA[
          <b>Ubicación:</b> López Mora - Pintor Lugrís<br/>
          <b>Descripción:</b> Cámara de tráfico en López Mora - Pintor Lugrís, Vigo<br/>
          <img src="http://camaras.vigo.org/webcam/cam.php?id=31" width="320" height="240"/>
        ]]>
      </description>
      <Point>
        <coordinates>-8.73247,42.22459,0</coordinates>
      </Point>
    </Placemark>
    <Placemark>
      <name>Praza Isabel la Católica</name>
      <description>
        <![CDATA[
          <b>Ubicación:</b> Praza Isabel la Católica<br/>
          <b>Descripción:</b> Cámara de tráfico en Praza Isabel la Católica, Vigo<br/>
          <img src="http://camaras.vigo.org/webcam/cam.php?id=32" width="320" height="240"/>
        ]]>
      </description>
      <Point>
        <coordinates>-8.71237,42.23123,0</coordinates>
      </Point>
    </Placemark>
    <Placemark>
      <name>Pi y Margall - Tomás Alonso</name>
      <description>
        <![CDATA[
          <b>Ubicación:</b> Pi y Margall - Tomás Alonso<br/>
          <b>Descripción:</b> Cámara de tráfico en Pi y Margall - Tomás Alonso, Vigo<br/>
          <img src="http://camaras.vigo.org/webcam/cam.php?id=33" width="320" height="240"/>
        ]]>
      </description>
      <Point>
        <coordinates>-8.7324,42.22808,0</coordinates>
      </Point>
    </Placemark>
    <Placemark>
      <name>Travesía de Vigo - Gregorio Espino</name>
      <description>
        <![CDATA[
          <b>Ubicación:</b> Travesía de Vigo - Gregorio Espino<br/>
          <b>Descripción:</b> Cámara de tráfico en Travesía de Vigo - Gregorio Espino, Vigo<br/>
          <img src="http://camaras.vigo.org/webcam/cam.php?id=07" width="320" height="240"/>
        ]]>
      </description>
      <Point>
        <coordinates>-8.70722,42.23252,0</coordinates>
      </Point>
    </Placemark>
    <Placemark>
      <name>Sanjurjo Badía - Buenos Aires</name>
      <description>
        <![CDATA[
          <b>Ubicación:</b> Sanjurjo Badía - Buenos Aires<br/>
          <b>Descripción:</b> Cámara de tráfico en Sanjurjo Badía - Buenos Aires, Vigo<br/>
          <img src="http://camaras.vigo.org/webcam/cam.php?id=14" width="320" height="240"/>
        ]]>
      </description>
      <Point>
        <coordinates>-8.69567,42.24985,0</coordinates>
      </Point>
    </Placemark>
    <Placemark>
      <name>Avenida de Madrid - Seminario</name>
      <description>
        <![CDATA[
          <b>Ubicación:</b> Avenida de Madrid - Seminario<br/>
          <b>Descripción:</b> Cámara de tráfico en Avenida de Madrid - Seminario, Vigo<br/>
          <img src="http://camaras.vigo.org/webcam/cam.php?id=35" width="320" height="240"/>
        ]]>
      </description>
      <Point>
        <coordinates>-8.69894,42.21377,0</coordinates>
      </Point>
    </Placemark>
    <Placemark>
      <name>Plaza de la Industria</name>
      <description>
        <![CDATA[
          <b>Ubicación:</b> Plaza de la Industria<br/>
          <b>Descripción:</b> Cámara de tráfico en Plaza de la Industria, Vigo<br/>
          <img src="http://camaras.vigo.org/webcam/cam.php?id=18" width="320" height="240"/>
        ]]>
      </description>
      <Point>
        <coordinates>-8.73608,42.2245,0</coordinates>
      </Point>
    </Placemark>
    <Placemark>
      <name>Baixada Pontenova</name>
      <description>
        <![CDATA[
          <b>Ubicación:</b> Baixada Pontenova<br/>
          <b>Descripción:</b> Cámara de tráfico en Baixada Pontenova, Vigo<br/>
          <img src="http://camaras.vigo.org/webcam/cam.php?id=21" width="320" height="240"/>
        ]]>
      </description>
      <Point>
        <coordinates>-8.72292,42.22039,0</coordinates>
      </Point>
    </Placemark>
    <Placemark>
      <name>Aeropuerto</name>
      <description>
        <![CDATA[
          <b>Ubicación:</b> Aeropuerto<br/>
          <b>Descripción:</b> Cámara de tráfico en Aeropuerto, Vigo<br/>
          <img src="http://camaras.vigo.org/webcam/cam.php?id=25" width="320" height="240"/>
        ]]>
      </description>
      <Point>
        <coordinates>-8.63543,42.22359,0</coordinates>
      </Point>
    </Placemark>
    <Placemark>
      <name>Aragón - Jenaro de la Fuente</name>
      <description>
        <![CDATA[
          <b>Ubicación:</b> Aragón - Jenaro de la Fuente<br/>
          <b>Descripción:</b> Cámara de tráfico en Aragón - Jenaro de la Fuente, Vigo<br/>
          <img src="http://camaras.vigo.org/webcam/cam.php?id=06" width="320" height="240"/>
        ]]>
      </description>
      <Point>
        <coordinates>-8.70232,42.23201,0</coordinates>
      </Point>
    </Placemark>
    <Placemark>
      <name>Travesía de Vigo - Aragón</name>
      <description>
        <![CDATA[
          <b>Ubicación:</b> Travesía de Vigo - Aragón<br/>
          <b>Descripción:</b> Cámara de tráfico en Travesía de Vigo - Aragón, Vigo<br/>
          <img src="http://camaras.vigo.org/webcam/cam.php?id=19" width="320" height="240"/>
        ]]>
      </description>
      <Point>
        <coordinates>-8.69815,42.24262,0</coordinates>
      </Point>
    </Placemark>
    <Placemark>
      <name>Av. Portanet - Val miñor</name>
      <description>
        <![CDATA[
          <b>Ubicación:</b> Av. Portanet - Val miñor<br/>
          <b>Descripción:</b> Cámara de tráfico en Av. Portanet - Val miñor, Vigo<br/>
          <img src="http://camaras.vigo.org/webcam/cam.php?id=20" width="320" height="240"/>
        ]]>
      </description>
      <Point>
        <coordinates>-8.73764,42.21116,0</coordinates>
      </Point>
    </Placemark>
    <Placemark>
      <name>Carral - Montero Ríos</name>
      <description>
        <![CDATA[
          <b>Ubicación:</b> Carral - Montero Ríos<br/>
          <b>Descripción:</b> Cámara de tráfico en Carral - Montero Ríos, Vigo<br/>
          <img src="http://camaras.vigo.org/webcam/cam.php?id=22" width="320" height="240"/>
        ]]>
      </description>
      <Point>
        <coordinates>-8.72495,42.24058,0</coordinates>
      </Point>
    </Placemark>
    <Placemark>
      <name>Martínez Garrido - Ramón Nieto</name>
      <description>
        <![CDATA[
          <b>Ubicación:</b> Martínez Garrido - Ramón Nieto<br/>
          <b>Descripción:</b> Cámara de tráfico en Martínez Garrido - Ramón Nieto, Vigo<br/>
          <img src="http://camaras.vigo.org/webcam/cam.php?id=23" width="320" height="240"/>
        ]]>
      </description>
      <Point>
        <coordinates>-8.7,42.23099,0</coordinates>
      </Point>
    </Placemark>
    <Placemark>
      <name>Praza de América 1</name>
      <description>
        <![CDATA[
          <b>Ubicación:</b> Praza de América 1<br/>
          <b>Descripción:</b> Cámara de tráfico en Praza de América 1, Vigo<br/>
          <img src="http://camaras.vigo.org/webcam/cam.php?id=01" width="320" height="240"/>
        ]]>
      </description>
      <Point>
        <coordinates>-8.73269,42.22104,0</coordinates>
      </Point>
    </Placemark>
    <Placemark>
      <name>Martínez Garrido - Dr. Carracido</name>
      <description>
        <![CDATA[
          <b>Ubicación:</b> Martínez Garrido - Dr. Carracido<br/>
          <b>Descripción:</b> Cámara de tráfico en Martínez Garrido - Dr. Carracido, Vigo<br/>
          <img src="http://camaras.vigo.org/webcam/cam.php?id=28" width="320" height="240"/>
        ]]>
      </description>
      <Point>
        <coordinates>-8.70167,42.22695,0</coordinates>
      </Point>
    </Placemark>
    <Placemark>
      <name>Túnel Orillamar - Berbés</name>
      <description>
        <![CDATA[
          <b>Ubicación:</b> Túnel Orillamar - Berbés<br/>
          <b>Descripción:</b> Cámara de tráfico en Túnel Orillamar - Berbés, Vigo<br/>
          <img src="http://camaras.vigo.org/webcam/cam.php?id=001" width="320" height="240"/>
        ]]>
      </description>
      <Point>
        <coordinates>-8.72996,42.23704,0</coordinates>
      </Point>
    </Placemark>
    <Placemark>
      <name>Túnel Orillamar - Cánovas del Castillo</name>
      <description>
        <![CDATA[
          <b>Ubicación:</b> Túnel Orillamar - Cánovas del Castillo<br/>
          <b>Descripción:</b> Cámara de tráfico en Túnel Orillamar - Cánovas del Castillo, Vigo<br/>
          <img src="http://camaras.vigo.org/webcam/cam.php?id=003" width="320" height="240"/>
        ]]>
      </description>
      <Point>
        <coordinates>-8.72926,42.23895,0</coordinates>
      </Point>
    </Placemark>
    <Placemark>
      <name>García Barbón - Isaac Peral</name>
      <description>
        <![CDATA[
          <b>Ubicación:</b> García Barbón - Isaac Peral<br/>
          <b>Descripción:</b> Cámara de tráfico en García Barbón - Isaac Peral, Vigo<br/>
          <img src="http://camaras.vigo.org/webcam/cam.php?id=17" width="320" height="240"/>
        ]]>
      </description>
      <Point>
        <coordinates>-8.70851,42.23924,0</coordinates>
      </Point>
    </Placemark>
    <Placemark>
      <name>Túnel Areal - Sanjurjo Badía</name>
      <description>
        <![CDATA[
          <b>Ubicación:</b> Túnel Areal - Sanjurjo Badía<br/>
          <b>Descripción:</b> Cámara de tráfico en Túnel Areal - Sanjurjo Badía, Vigo<br/>
          <img src="http://camaras.vigo.org/webcam/cam.php?id=616" width="320" height="240"/>
        ]]>
      </description>
      <Point>
        <coordinates>-8.7068,42.2429,0</coordinates>
      </Point>
    </Placemark>
    <Placemark>
      <name>Túnel Orillamar - Areal</name>
      <description>
        <![CDATA[
          <b>Ubicación:</b> Túnel Orillamar - Areal<br/>
          <b>Descripción:</b> Cámara de tráfico en Túnel Orillamar - Areal, Vigo<br/>
          <img src="http://camaras.vigo.org/webcam/cam.php?id=011" width="320" height="240"/>
        ]]>
      </description>
      <Point>
        <coordinates>-8.71733,42.23928,0</coordinates>
      </Point>
    </Placemark>
    <Placemark>
      <name>Baixada ó Pontillón</name>
      <description>
        <![CDATA[
          <b>Ubicación:</b> Baixada ó Pontillón<br/>
          <b>Descripción:</b> Cámara de tráfico en Baixada ó Pontillón, Vigo<br/>
          <img src="http://camaras.vigo.org/webcam/cam.php?id=36" width="320" height="240"/>
        ]]>
      </description>
      <Point>
        <coordinates>-8.7277,42.21746,0</coordinates>
      </Point>
    </Placemark>
    <Placemark>
      <name>Balaídos - Fragoso</name>
      <description>
        <![CDATA[
          <b>Ubicación:</b> Balaídos - Fragoso<br/>
          <b>Descripción:</b> Cámara de tráfico en Balaídos - Fragoso, Vigo<br/>
          <img src="http://camaras.vigo.org/webcam/cam.php?id=37" width="320" height="240"/>
        ]]>
      </description>
      <Point>
        <coordinates>-8.73859,42.21282,0</coordinates>
      </Point>
    </Placemark>
    <Placemark>
      <name>Aragón - Padre Celso</name>
      <description>
        <![CDATA[
          <b>Ubicación:</b> Aragón - Padre Celso<br/>
          <b>Descripción:</b> Cámara de tráfico en Aragón - Padre Celso, Vigo<br/>
          <img src="http://camaras.vigo.org/webcam/cam.php?id=38" width="320" height="240"/>
        ]]>
      </description>
      <Point>
        <coordinates>-8.70061,42.23659,0</coordinates>
      </Point>
    </Placemark>
    <Placemark>
      <name>Hospital A. Cunqueiro</name>
      <description>
        <![CDATA[
          <b>Ubicación:</b> Hospital A. Cunqueiro<br/>
          <b>Descripción:</b> Cámara de tráfico en Hospital A. Cunqueiro, Vigo<br/>
          <img src="http://camaras.vigo.org/webcam/cam.php?id=40" width="320" height="240"/>
        ]]>
      </description>
      <Point>
        <coordinates>-8.71797,42.18989,0</coordinates>
      </Point>
    </Placemark>
    <Placemark>
      <name>Av. Madrid</name>
      <description>
        <![CDATA[
          <b>Ubicación:</b> Av. Madrid<br/>
          <b>Descripción:</b> Cámara de tráfico en Av. Madrid, Vigo<br/>
          <img src="http://camaras.vigo.org/webcam/cam.php?id=12" width="320" height="240"/>
        ]]>
      </description>
      <Point>
        <coordinates>-8.71156,42.22487,0</coordinates>
      </Point>
    </Placemark>
    <Placemark>
      <name>Castrelos - Antonio Palacios</name>
      <description>
        <![CDATA[
          <b>Ubicación:</b> Castrelos - Antonio Palacios<br/>
          <b>Descripción:</b> Cámara de tráfico en Castrelos - Antonio Palacios, Vigo<br/>
          <img src="http://camaras.vigo.org/webcam/cam.php?id=15" width="320" height="240"/>
        ]]>
      </description>
      <Point>
        <coordinates>-8.73244,42.21502,0</coordinates>
      </Point>
    </Placemark>
    <Placemark>
      <name>Camelias - Ourense</name>
      <description>
        <![CDATA[
          <b>Ubicación:</b> Camelias - Ourense<br/>
          <b>Descripción:</b> Cámara de tráfico en Camelias - Ourense, Vigo<br/>
          <img src="http://camaras.vigo.org/webcam/cam.php?id=16" width="320" height="240"/>
        ]]>
      </description>
      <Point>
        <coordinates>-8.7294,42.22584,0</coordinates>
      </Point>
    </Placemark>
    <Placemark>
      <name>Urzáiz - Gran Vía - Lepanto</name>
      <description>
        <![CDATA[
          <b>Ubicación:</b> Urzáiz - Gran Vía - Lepanto<br/>
          <b>Descripción:</b> Cámara de tráfico en Urzáiz - Gran Vía - Lepanto, Vigo<br/>
          <img src="http://camaras.vigo.org/webcam/cam.php?id=03" width="320" height="240"/>
        ]]>
      </description>
      <Point>
        <coordinates>-8.7166,42.23439,0</coordinates>
      </Point>
    </Placemark>
    <Placemark>
      <name>Venezuela - Granada</name>
      <description>
        <![CDATA[
          <b>Ubicación:</b> Venezuela - Granada<br/>
          <b>Descripción:</b> Cámara de tráfico en Venezuela - Granada, Vigo<br/>
          <img src="http://camaras.vigo.org/webcam/cam.php?id=11" width="320" height="240"/>
        ]]>
      </description>
      <Point>
        <coordinates>-8.72602,42.23499,0</coordinates>
      </Point>
    </Placemark>
    <Placemark>
      <name>Praza de España</name>
      <description>
        <![CDATA[
          <b>Ubicación:</b> Praza de España<br/>
          <b>Descripción:</b> Cámara de tráfico en Praza de España, Vigo<br/>
          <img src="http://camaras.vigo.org/webcam/cam.php?id=02" width="320" height="240"/>
        ]]>
      </description>
      <Point>
        <coordinates>-8.71976,42.22922,0</coordinates>
      </Point>
    </Placemark>
    <Placemark>
      <name>Colón - Policarpo Sanz - García Barbón</name>
      <description>
        <![CDATA[
          <b>Ubicación:</b> Colón - Policarpo Sanz - García Barbón<br/>
          <b>Descripción:</b> Cámara de tráfico en Colón - Policarpo Sanz - García Barbón, Vigo<br/>
          <img src="http://camaras.vigo.org/webcam/cam.php?id=04" width="320" height="240"/>
        ]]>
      </description>
      <Point>
        <coordinates>-8.72058,42.23763,0</coordinates>
      </Point>
    </Placemark>
    <Placemark>
      <name>Gran Vía - Tarragona</name>
      <description>
        <![CDATA[
          <b>Ubicación:</b> Gran Vía - Tarragona<br/>
          <b>Descripción:</b> Cámara de tráfico en Gran Vía - Tarragona, Vigo<br/>
          <img src="http://camaras.vigo.org/webcam/cam.php?id=08" width="320" height="240"/>
        ]]>
      </description>
      <Point>
        <coordinates>-8.7255,42.22237,0</coordinates>
      </Point>
    </Placemark>
    <Placemark>
      <name>Pizarro - Vázquez Varela</name>
      <description>
        <![CDATA[
          <b>Ubicación:</b> Pizarro - Vázquez Varela<br/>
          <b>Descripción:</b> Cámara de tráfico en Pizarro - Vázquez Varela, Vigo<br/>
          <img src="http://camaras.vigo.org/webcam/cam.php?id=13" width="320" height="240"/>
        ]]>
      </description>
      <Point>
        <coordinates>-8.71531,42.23061,0</coordinates>
      </Point>
    </Placemark>
    <Placemark>
      <name>Praza América 2</name>
      <description>
        <![CDATA[
          <b>Ubicación:</b> Praza América 2<br/>
          <b>Descripción:</b> Cámara de tráfico en Praza América 2, Vigo<br/>
          <img src="http://camaras.vigo.org/webcam/cam.php?id=39" width="320" height="240"/>
        ]]>
      </description>
      <Point>
        <coordinates>-8.73328,42.2205,0</coordinates>
      </Point>
    </Placemark>
    <Placemark>
      <name>Gran Vía - Valle Inclán hacia Pr. América</name>
      <description>
        <![CDATA[
          <b>Ubicación:</b> Gran Vía - Valle Inclán hacia Pr. América<br/>
          <b>Descripción:</b> Cámara de tráfico en Gran Vía - Valle Inclán hacia Pr. América, Vigo<br/>
          <img src="http://camaras.vigo.org/webcam/cam.php?id=41" width="320" height="240"/>
        ]]>
      </description>
      <Point>
        <coordinates>-8.7207,42.22727,0</coordinates>
      </Point>
    </Placemark>
    <Placemark>
      <name>Gran Vía - Valle Inclán hacia Pr. España</name>
      <description>
        <![CDATA[
          <b>Ubicación:</b> Gran Vía - Valle Inclán hacia Pr. España<br/>
          <b>Descripción:</b> Cámara de tráfico en Gran Vía - Valle Inclán hacia Pr. España, Vigo<br/>
          <img src="http://camaras.vigo.org/webcam/cam.php?id=42" width="320" height="240"/>
        ]]>
      </description>
      <Point>
        <coordinates>-8.7206,42.22707,0</coordinates>
      </Point>
    </Placemark>
    <Placemark>
      <name>Colón - Urzáiz</name>
      <description>
        <![CDATA[
          <b>Ubicación:</b> Colón - Urzáiz<br/>
          <b>Descripción:</b> Cámara de tráfico en Colón - Urzáiz, Vigo<br/>
          <img src="http://camaras.vigo.org/webcam/cam.php?id=43" width="320" height="240"/>
        ]]>
      </description>
      <Point>
        <coordinates>-8.71998,42.23579,0</coordinates>
      </Point>
    </Placemark>
    <Placemark>
      <name>Camelias - Romil</name>
      <description>
        <![CDATA[
          <b>Ubicación:</b> Camelias - Romil<br/>
          <b>Descripción:</b> Cámara de tráfico en Camelias - Romil, Vigo<br/>
          <img src="http://camaras.vigo.org/webcam/cam.php?id=44" width="320" height="240"/>
        ]]>
      </description>
      <Point>
        <coordinates>-8.72992,42.23137,0</coordinates>
      </Point>
    </Placemark>
    <Placemark>
      <name>Emilia Pardo Bazán - A. Palacios</name>
      <description>
        <![CDATA[
          <b>Ubicación:</b> Emilia Pardo Bazán - A. Palacios<br/>
          <b>Descripción:</b> Cámara de tráfico en Emilia Pardo Bazán - A. Palacios, Vigo<br/>
          <img src="http://camaras.vigo.org/webcam/cam.php?id=45" width="320" height="240"/>
        ]]>
      </description>
      <Point>
        <coordinates>-8.71216,42.22322,0</coordinates>
      </Point>
    </Placemark>
    <Placemark>
      <name>Gregorio Espino - Reiseñor</name>
      <description>
        <![CDATA[
          <b>Ubicación:</b> Gregorio Espino - Reiseñor<br/>
          <b>Descripción:</b> Cámara de tráfico en Gregorio Espino - Reiseñor, Vigo<br/>
          <img src="http://camaras.vigo.org/webcam/cam.php?id=46" width="320" height="240"/>
        ]]>
      </description>
      <Point>
        <coordinates>-8.70714,42.22928,0</coordinates>
      </Point>
    </Placemark>
    <Placemark>
      <name>García Barbón - Serafín Avendaño</name>
      <description>
        <![CDATA[
          <b>Ubicación:</b> García Barbón - Serafín Avendaño<br/>
          <b>Descripción:</b> Cámara de tráfico en García Barbón - Serafín Avendaño, Vigo<br/>
          <img src="http://camaras.vigo.org/webcam/cam.php?id=47" width="320" height="240"/>
        ]]>
      </description>
      <Point>
        <coordinates>-8.71241,42.23694,0</coordinates>
      </Point>
    </Placemark>
    <Placemark>
      <name>Camelias - Dr. Marañón</name>
      <description>
        <![CDATA[
          <b>Ubicación:</b> Camelias - Dr. Marañón<br/>
          <b>Descripción:</b> Cámara de tráfico en Camelias - Dr. Marañón, Vigo<br/>
          <img src="http://camaras.vigo.org/webcam/cam.php?id=48" width="320" height="240"/>
        ]]>
      </description>
      <Point>
        <coordinates>-8.73063,42.22817,0</coordinates>
      </Point>
    </Placemark>
    <Placemark>
      <name>Vía Norte - Escultor Gregorio Fdez</name>
      <description>
        <![CDATA[
          <b>Ubicación:</b> Vía Norte - Escultor Gregorio Fdez<br/>
          <b>Descripción:</b> Cámara de tráfico en Vía Norte - Escultor Gregorio Fdez, Vigo<br/>
          <img src="http://camaras.vigo.org/webcam/cam.php?id=49" width="320" height="240"/>
        ]]>
      </description>
      <Point>
        <coordinates>-8.71024,42.23464,0</coordinates>
      </Point>
    </Placemark>
    <Placemark>
      <name>Vía Norte - Urzáiz</name>
      <description>
        <![CDATA[
          <b>Ubicación:</b> Vía Norte - Urzáiz<br/>
          <b>Descripción:</b> Cámara de tráfico en Vía Norte - Urzáiz, Vigo<br/>
          <img src="http://camaras.vigo.org/webcam/cam.php?id=50" width="320" height="240"/>
        ]]>
      </description>
      <Point>
        <coordinates>-8.71396,42.23355,0</coordinates>
      </Point>
    </Placemark>
    <Placemark>
      <name>Trav. de Vigo - Dr. Canoa</name>
      <description>
        <![CDATA[
          <b>Ubicación:</b> Trav. de Vigo - Dr. Canoa<br/>
          <b>Descripción:</b> Cámara de tráfico en Trav. de Vigo - Dr. Canoa, Vigo<br/>
          <img src="http://camaras.vigo.org/webcam/cam.php?id=51" width="320" height="240"/>
        ]]>
      </description>
      <Point>
        <coordinates>-8.70309,42.23708,0</coordinates>
      </Point>
    </Placemark>
    <Placemark>
      <name>Av. Beiramar - Bouzas</name>
      <description>
        <![CDATA[
          <b>Ubicación:</b> Av. Beiramar - Bouzas<br/>
          <b>Descripción:</b> Cámara de tráfico en Av. Beiramar - Bouzas, Vigo<br/>
          <img src="http://camaras.vigo.org/webcam/cam.php?id=52" width="320" height="240"/>
        ]]>
      </description>
      <Point>
        <coordinates>-8.73822,42.22639,0</coordinates>
      </Point>
    </Placemark>
    <Placemark>
      <name>Av. Beiramar - Berbés</name>
      <description>
        <![CDATA[
          <b>Ubicación:</b> Av. Beiramar - Berbés<br/>
          <b>Descripción:</b> Cámara de tráfico en Av. Beiramar - Berbés, Vigo<br/>
          <img src="http://camaras.vigo.org/webcam/cam.php?id=53" width="320" height="240"/>
        ]]>
      </description>
      <Point>
        <coordinates>-8.73787,42.22758,0</coordinates>
      </Point>
    </Placemark>
    <Placemark>
      <name>Trav. de Vigo - Mestre Montes</name>
      <description>
        <![CDATA[
          <b>Ubicación:</b> Trav. de Vigo - Mestre Montes<br/>
          <b>Descripción:</b> Cámara de tráfico en Trav. de Vigo - Mestre Montes, Vigo<br/>
          <img src="http://camaras.vigo.org/webcam/cam.php?id=54" width="320" height="240"/>
        ]]>
      </description>
      <Point>
        <coordinates>-8.7027,42.24064,0</coordinates>
      </Point>
    </Placemark>
    <Placemark>
      <name>Gran Vía - Venezuela</name>
      <description>
        <![CDATA[
          <b>Ubicación:</b> Gran Vía - Venezuela<br/>
          <b>Descripción:</b> Cámara de tráfico en Gran Vía - Venezuela, Vigo<br/>
          <img src="http://camaras.vigo.org/webcam/cam.php?id=55" width="320" height="240"/>
        ]]>
      </description>
      <Point>
        <coordinates>-8.71802,42.23186,0</coordinates>
      </Point>
    </Placemark>
  </Document>
</kml>